station_id,station_name,lat,lon,ndvi,category,n_days,mean_error,std_error,rmse,mae,bias,correlation,station_mean,era5_mean
755.0,EMBRUN,44.565555555555555,6.501944444444445,0.2834645669291338,Suburban,1461,-8.795767343509368,2.421534961834541,9.122792399181407,8.797691083068639,-8.795767343509368,0.959741286970182,18.227926078028748,9.432158
11243.0,TROYES-BARBEREY,48.324444444444445,4.019722222222222,0.4409448818897639,Rural,1461,-1.3766714525581791,1.2810208582029547,1.880190286718661,1.615937645381481,-1.3766714525581791,0.9891752077134124,17.737440109514033,16.360767
11246.0,NANCY-OCHEY,48.58083333333334,5.959444444444444,0.5118110236220472,Rural,1461,-1.0230311086290427,1.4013900547743823,1.7346880188095133,1.4186766993256972,-1.0230311086290427,0.988663614137299,16.287337440109514,15.264307
2205.0,ST-GIRONS,43.00527777777778,1.1066666666666667,0.6377952755905512,Rural,1461,-2.760562077391074,1.6823482596237924,3.232500799378746,2.9276569175850766,-2.760562077391074,0.9736007755766938,19.473511293634495,16.71295
738.0,CAEN-CARPIQUET,49.18,-0.45583333333333337,0.68503937007874,Rural,1461,-0.65568343834221,1.1112517717910846,1.289944201114002,1.0478592326264118,-0.65568343834221,0.9850476405320607,16.43586584531143,15.780183
